{
  "type": "FeatureCollection",
  "features": [
    {"type": "Feature", "properties": {"name": "Oslo", "code": "03", "region": "Østlandet"}, "geometry": {"type": "Point", "coordinates": [10.7522, 59.9139]}},
    {"type": "Feature", "properties": {"name": "Rogaland", "code": "11", "region": "Vestlandet"}, "geometry": {"type": "Point", "coordinates": [6.0093, 59.1492]}},
    {"type": "Feature", "properties": {"name": "Møre og Romsdal", "code": "15", "region": "Vestlandet"}, "geometry": {"type": "Point", "coordinates": [7.1573, 62.4722]}},
    {"type": "Feature", "properties": {"name": "Nordland", "code": "18", "region": "Nord-Norge"}, "geometry": {"type": "Point", "coordinates": [14.5237, 66.9619]}},
    {"type": "Feature", "properties": {"name": "Viken", "code": "30", "region": "Østlandet"}, "geometry": {"type": "Point", "coordinates": [10.4561, 59.7442]}},
    {"type": "Feature", "properties": {"name": "Innlandet", "code": "34", "region": "Østlandet"}, "geometry": {"type": "Point", "coordinates": [10.4041, 61.1153]}},
    {"type": "Feature", "properties": {"name": "Vestfold og Telemark", "code": "38", "region": "Østlandet"}, "geometry": {"type": "Point", "coordinates": [9.0946, 59.2058]}},
    {"type": "Feature", "properties": {"name": "Agder", "code": "42", "region": "Sørlandet"}, "geometry": {"type": "Point", "coordinates": [7.9956, 58.4702]}},
    {"type": "Feature", "properties": {"name": "Vestland", "code": "46", "region": "Vestlandet"}, "geometry": {"type": "Point", "coordinates": [6.3903, 60.9095]}},
    {"type": "Feature", "properties": {"name": "Trøndelag", "code": "50", "region": "Trøndelag"}, "geometry": {"type": "Point", "coordinates": [11.4935, 63.4305]}},
    {"type": "Feature", "properties": {"name": "Troms og Finnmark", "code": "54", "region": "Nord-Norge"}, "geometry": {"type": "Point", "coordinates": [21.0438, 69.6492]}}
  ]
}
